[
{"id":"63976","name":"CASERTA REGGIA","city":"Caserta","lat":41.070429,"lng":14.331053,"site":"lions.it/club/?id=63976","address":"Caserta","country":"ITALIA"},
{"id":"125798","name":"Caserta Terra Di Lavoro Reloaded","city":"Caserta","lat":41.073428,"lng":14.339052,"site":"lions.it/club/?id=125798","address":"Caserta","country":"ITALIA"},
{"id":"21248","name":"CASERTA HOST","city":"Caserta","lat":41.073428,"lng":14.339052,"site":"lions.it/club/?id=21248","address":"Caserta","country":"ITALIA"},
{"id":"64296","name":"CASERTA VILLA REALE NEW CENTURY","city":"Caserta","lat":41.074978,"lng":14.33224,"site":"lions.it/club/?id=64296","address":"Caserta","country":"ITALIA"},
{"id":"52819","name":"CASTELLAMMARE DI STABIA TERME","city":"Castellammare Di Stabia","lat":40.69562,"lng":14.491019,"site":"lions.it/club/?id=52819","address":"Castellammare Di Stabia","country":"ITALIA"},
{"id":"57270","name":"SANTA MARIA CAPUA VETERE","city":"Santa Maria Capua Vetere","lat":41.086881,"lng":14.258997,"site":"lions.it/club/?id=57270","address":"Santa Maria Capua Vetere","country":"ITALIA"},
{"id":"21273","name":"PENISOLA SORRENTINA","city":"Sant'Agnello","lat":40.632513,"lng":14.399568,"site":"lions.it/club/?id=21273","address":"Sant'Agnello","country":"ITALIA"},
{"id":"106121","name":"PENISOLA SORRENTINA","city":"Sorrento","lat":40.628792,"lng":14.388898,"site":"lions.it/club/?id=106121","address":"Sorrento","country":"ITALIA"},
{"id":"21258","name":"ISOLA D'ISCHIA","city":"Forio","lat":40.742453,"lng":13.866924,"site":"lions.it/club/?id=21258","address":"Forio","country":"ITALIA"},
{"id":"42687","name":"CAVA DEI TIRRENI VIETRI","city":"Cava De' Tirreni","lat":40.682749,"lng":14.692537,"site":"lions.it/club/?id=42687","address":"Cava De' Tirreni","country":"ITALIA"},
{"id":"36739","name":"MERCATO SAN SEVERINO","city":"Montoro","lat":40.820388,"lng":14.775672,"site":"lions.it/club/?id=36739","address":"Montoro","country":"ITALIA"},
{"id":"97983","name":"SESSA AURUNCA LITORALE DOMITIO","city":"Mondragone","lat":41.112248,"lng":13.883511,"site":"lions.it/club/?id=97983","address":"Mondragone","country":"ITALIA"},
{"id":"47990","name":"SALERNO HIPPOCRATICA CIVITAS","city":"Salerno","lat":40.677967,"lng":14.748316,"site":"lions.it/club/?id=47990","address":"Salerno","country":"ITALIA"},
{"id":"60814","name":"SALERNO 2000","city":"Salerno","lat":40.677861,"lng":14.749225,"site":"lions.it/club/?id=60814","address":"Salerno","country":"ITALIA"},
{"id":"179579","name":"Salerno Forte La Carnale Giovanna Gattola Lacava","city":"Salerno","lat":40.677861,"lng":14.749225,"site":"lions.it/club/?id=179579","address":"Salerno","country":"ITALIA"},
{"id":"21279","name":"SALERNO HOST","city":"Salerno","lat":40.681331,"lng":14.774358,"site":"lions.it/club/?id=21279","address":"Salerno","country":"ITALIA"},
{"id":"48588","name":"SALERNO ARECHI","city":"Salerno","lat":40.671387,"lng":14.778661,"site":"lions.it/club/?id=48588","address":"Salerno","country":"ITALIA"},
{"id":"150700","name":"Battipaglia","city":"Battipaglia","lat":40.603941,"lng":14.97351,"site":"lions.it/club/?id=150700","address":"Battipaglia","country":"ITALIA"},
{"id":"44868","name":"EBOLI-BATTIPAGLIA HOST","city":"Battipaglia","lat":40.603722,"lng":14.973576,"site":"lions.it/club/?id=44868","address":"Battipaglia","country":"ITALIA"},
{"id":"145920","name":"Eboli Valle del Sele","city":"Eboli","lat":40.615363,"lng":15.058403,"site":"lions.it/club/?id=145920","address":"Eboli","country":"ITALIA"},
{"id":"126070","name":"Campagna Silarus","city":"Campagna","lat":40.635384,"lng":15.104606,"site":"lions.it/club/?id=126070","address":"Campagna","country":"ITALIA"},
{"id":"156436","name":"Capaccio Paestum Magna Graecia","city":"Capaccio Paestum","lat":40.45157,"lng":14.975931,"site":"lions.it/club/?id=156436","address":"Capaccio Paestum","country":"ITALIA"},
{"id":"48346","name":"PAESTUM HOST","city":"Capaccio","lat":40.433903,"lng":14.988721,"site":"lions.it/club/?id=48346","address":"Capaccio","country":"ITALIA"},
{"id":"145753","name":"Agropoli Faro del Cilento","city":"Agropoli","lat":40.385227,"lng":15.026528,"site":"lions.it/club/?id=145753","address":"Agropoli","country":"ITALIA"},
{"id":"60444","name":"CASTELLABATE CILENTO ANTICO","city":"Castellabate","lat":40.264664,"lng":14.940932,"site":"lions.it/club/?id=60444","address":"Castellabate","country":"ITALIA"},
{"id":"21243","name":"BENEVENTO HOST","city":"Benevento","lat":41.1261,"lng":14.779974,"site":"lions.it/club/?id=21243","address":"Benevento","country":"ITALIA"},
{"id":"78577","name":"BENEVENTO ARCO TRAIANO","city":"Benevento","lat":41.128584,"lng":14.788997,"site":"lions.it/club/?id=78577","address":"Benevento","country":"ITALIA"},
{"id":"134657","name":"Piedimonte Matese I Sanniti","city":"Piedimonte Matese","lat":41.35657,"lng":14.374492,"site":"lions.it/club/?id=134657","address":"Piedimonte Matese","country":"ITALIA"},
{"id":"35605","name":"BOJANO","city":"Bojano","lat":41.486416,"lng":14.474659,"site":"lions.it/club/?id=35605","address":"Bojano","country":"ITALIA"},
{"id":"21238","name":"ARIANO IRPINO","city":"Ariano Irpino","lat":41.152761,"lng":15.088138,"site":"lions.it/club/?id=21238","address":"Ariano Irpino","country":"ITALIA"},
{"id":"33731","name":"BARI TRIGGIANO MARINA","city":"Bari","lat":41.098816,"lng":16.855795,"site":"lions.it/club/?id=33731","address":"Bari","country":"ITALIA"},
{"id":"133615","name":"Bari Citta Metropolitana","city":"Bari","lat":41.099096,"lng":16.854892,"site":"lions.it/club/?id=133615","address":"Bari","country":"ITALIA"},
{"id":"21114","name":"BARI","city":"Bari","lat":41.099096,"lng":16.854892,"site":"lions.it/club/?id=21114","address":"Bari","country":"ITALIA"},
{"id":"51577","name":"BARI G. MURAT","city":"Bari","lat":41.125662,"lng":16.788832,"site":"lions.it/club/?id=51577","address":"Bari","country":"ITALIA"},
{"id":"53201","name":"BARI MELVIN JONES","city":"Bari","lat":41.153827,"lng":16.771113,"site":"lions.it/club/?id=53201","address":"Bari","country":"ITALIA"},
{"id":"103347","name":"BARI SAN GIORGIO","city":"Noicattaro","lat":41.079387,"lng":17.00059,"site":"lions108ab.it","address":"Noicattaro","country":"ITALIA"},
{"id":"45708","name":"BITONTO","city":"Bitonto","lat":41.111533,"lng":16.6919,"site":"lions.it/club/?id=45708","address":"Bitonto","country":"ITALIA"},
{"id":"123726","name":"Palo del Colle - Auricarro","city":"Palo Del Colle","lat":41.058442,"lng":16.706643,"site":"lions.it/club/?id=123726","address":"Palo Del Colle","country":"ITALIA"},
{"id":"21144","name":"MOLFETTA","city":"Giovinazzo","lat":41.178964,"lng":16.656746,"site":"lions.it/club/?id=21144","address":"Giovinazzo","country":"ITALIA"},
{"id":"63173","name":"TORITTO","city":"Toritto","lat":40.99599,"lng":16.683774,"site":"lions.it/club/?id=63173","address":"Toritto","country":"ITALIA"},
{"id":"102227","name":"ACQUAVIVA DELLE FONTI PURA DEFLUIT","city":"Acquaviva Delle Fonti","lat":40.896809,"lng":16.846438,"site":"lions.it/club/?id=102227","address":"Acquaviva Delle Fonti","country":"ITALIA"},
{"id":"75997","name":"RUVO DI PUGLIA TALOS HOST","city":"Ruvo Di Puglia","lat":41.11628,"lng":16.4856,"site":"lions.it/club/?id=75997","address":"Ruvo Di Puglia","country":"ITALIA"},
{"id":"57047","name":"BISCEGLIE","city":"Bisceglie","lat":41.240352,"lng":16.500827,"site":"lions.it/club/?id=57047","address":"Bisceglie","country":"ITALIA"},
{"id":"21145","name":"MONOPOLI","city":"Monopoli","lat":40.951144,"lng":17.287256,"site":"lions108ab.it","address":"Monopoli","country":"ITALIA"},
{"id":"122460","name":"Trani Ordinamenta Maris","city":"Trani","lat":41.274337,"lng":16.418062,"site":"lions.it/club/?id=122460","address":"Trani","country":"ITALIA"},
{"id":"48616","name":"ANDRIA COSTANZA D'ARAGONA","city":"Andria","lat":41.225213,"lng":16.300672,"site":"lions.it/club/?id=48616","address":"Andria","country":"ITALIA"},
{"id":"98755","name":"COPERTINO SALENTO PINO CORDELLA","city":"Lecce","lat":40.352672,"lng":18.177834,"site":"lions108ab.it","address":"Lecce","country":"ITALIA"},
{"id":"134123","name":"Puglia Dei Patrimoni E Dei Cittadini","city":"Lecce","lat":40.35383,"lng":18.188439,"site":"lions108ab.it","address":"Lecce","country":"ITALIA"},
{"id":"53107","name":"LECCE RUDIAE","city":"Lecce","lat":40.363972,"lng":18.165864,"site":"lions108ab.it","address":"Lecce","country":"ITALIA"},
{"id":"41539","name":"LECCE SANTA CROCE","city":"Lecce","lat":40.363972,"lng":18.165864,"site":"lions108ab.it","address":"Lecce","country":"ITALIA"},
{"id":"59510","name":"LECCE MESSAPIA","city":"Lecce","lat":40.31101,"lng":18.201365,"site":"lions108ab.it","address":"Lecce","country":"ITALIA"},
{"id":"21140","name":"MAGLIE","city":"Maglie","lat":40.121177,"lng":18.299223,"site":"lions108ab.it","address":"Maglie","country":"ITALIA"},
{"id":"133782","name":"Salento Territorio ed Ambiente","city":"Maglie","lat":40.120209,"lng":18.303511,"site":"lions108ab.it","address":"Maglie","country":"ITALIA"},
{"id":"72133","name":"CASARANO","city":"Parabita","lat":40.049874,"lng":18.129464,"site":"lions108ab.it","address":"Parabita","country":"ITALIA"},
{"id":"51578","name":"GALLIPOLI","city":"Gallipoli","lat":40.056066,"lng":17.986615,"site":"lions108ab.it","address":"Gallipoli","country":"ITALIA"},
{"id":"21116","name":"BRINDISI","city":"Brindisi","lat":40.634542,"lng":17.94043,"site":"lions108ab.it","address":"Brindisi","country":"ITALIA"},
{"id":"150772","name":"Poggiardo UNICRIS","city":"Poggiardo","lat":40.053071,"lng":18.381133,"site":"lions108ab.it","address":"Poggiardo","country":"ITALIA"},
{"id":"29415","name":"CASARANO","city":"Casarano","lat":40.012525,"lng":18.1632,"site":"lions108ab.it","address":"Casarano","country":"ITALIA"},
{"id":"41200","name":"MESAGNE","city":"Mesagne","lat":40.565197,"lng":17.816772,"site":"lions108ab.it","address":"Mesagne","country":"ITALIA"},
{"id":"21126","name":"FOGGIA HOST","city":"Foggia","lat":41.463875,"lng":15.55417,"site":"lionsclubfoggia.it","address":"Foggia","country":"ITALIA"},
{"id":"52476","name":"FOGGIA ARPI","city":"Foggia","lat":41.453707,"lng":15.547822,"site":"lions.it/club/?id=52476","address":"Foggia","country":"ITALIA"},
{"id":"138332","name":"Monti Dauni Meridionali","city":"Foggia","lat":41.450061,"lng":15.563136,"site":"lions.it/club/?id=138332","address":"Foggia","country":"ITALIA"},
{"id":"54584","name":"FOGGIA UMBERTO GIORDANO","city":"Foggia","lat":41.440371,"lng":15.557908,"site":"lions.it/club/?id=54584","address":"Foggia","country":"ITALIA"},
{"id":"21157","name":"SAN SEVERO","city":"San Severo","lat":41.689268,"lng":15.38776,"site":"lions108ab.it","address":"San Severo","country":"ITALIA"},
{"id":"39720","name":"SAN MARCO IN LAMIS","city":"San Marco In Lamis","lat":41.704403,"lng":15.656275,"site":"lions108ab.it","address":"San Marco In Lamis","country":"ITALIA"},
{"id":"117278","name":"GARGANO SAN GIOVANNI ROTONDO","city":"San Giovanni Rotondo","lat":41.703811,"lng":15.720663,"site":"lions108ab.it","address":"San Giovanni Rotondo","country":"ITALIA"},
{"id":"21142","name":"MANFREDONIA HOST","city":"Manfredonia","lat":41.641564,"lng":15.868477,"site":"lions108ab.it","address":"Manfredonia","country":"ITALIA"},
{"id":"65502","name":"MANFREDONIA SIPONTUM","city":"Manfredonia","lat":41.621439,"lng":15.909552,"site":"lions108ab.it","address":"Manfredonia","country":"ITALIA"},
{"id":"138496","name":"Cerignola Torre Alemanna","city":"Cerignola","lat":41.2714,"lng":15.914555,"site":"lions.it/club/?id=138496","address":"Cerignola","country":"ITALIA"},
{"id":"21119","name":"CERIGNOLA HOST","city":"Cerignola","lat":41.2714,"lng":15.914555,"site":"lions.it/club/?id=21119","address":"Cerignola","country":"ITALIA"},
{"id":"21155","name":"TARANTO HOST","city":"Taranto","lat":40.474531,"lng":17.240498,"site":"lions108ab.it","address":"Taranto","country":"ITALIA"},
{"id":"101021","name":"TARANTO FALANTO","city":"Taranto","lat":40.398341,"lng":17.270856,"site":"lions108ab.it","address":"Taranto","country":"ITALIA"},
{"id":"73897","name":"MASSAFRA MOTTOLA LE CRIPTE","city":"Massafra","lat":40.586333,"lng":17.125016,"site":"lions108ab.it","address":"Massafra","country":"ITALIA"},
{"id":"52861","name":"MASSAFRA MOTTOLA LE CRIPTE","city":"Massafra","lat":40.587263,"lng":17.124222,"site":"lions108ab.it","address":"Massafra","country":"ITALIA"},
{"id":"63172","name":"MARTINA FRANCA VALLE D'ITRIA","city":"Martina Franca","lat":40.700792,"lng":17.341079,"site":"lions108ab.it","address":"Martina Franca","country":"ITALIA"},
{"id":"21143","name":"MARTINA FRANCA HOST","city":"Martina Franca","lat":40.701104,"lng":17.341966,"site":"lions108ab.it","address":"Martina Franca","country":"ITALIA"},
{"id":"21141","name":"MANDURIA","city":"Maruggio","lat":40.318854,"lng":17.540737,"site":"lions108ab.it","address":"Maruggio","country":"ITALIA"},
{"id":"98465","name":"CEGLIE MESSAPICA ALTO SALENTO","city":"Ceglie Messapica","lat":40.648639,"lng":17.509163,"site":"lions108ab.it","address":"Ceglie Messapica","country":"ITALIA"},
{"id":"21148","name":"OSTUNI HOST","city":"Ostuni","lat":40.732198,"lng":17.557332,"site":"lions108ab.it","address":"Ostuni","country":"ITALIA"},
{"id":"98932","name":"OSTUNI CITTÀ BIANCA","city":"Ostuni","lat":40.728586,"lng":17.575044,"site":"lions108ab.it","address":"Ostuni","country":"ITALIA"},
{"id":"82733","name":"POTENZA DUOMO","city":"Potenza","lat":40.646004,"lng":15.801393,"site":"lions.it/club/?id=82733","address":"Potenza","country":"ITALIA"},
{"id":"37600","name":"VULTURE","city":"Melfi","lat":40.995339,"lng":15.659491,"site":"lions.it/club/?id=37600","address":"Melfi","country":"ITALIA"},
{"id":"53454","name":"MELFI","city":"Melfi","lat":40.993263,"lng":15.63654,"site":"lions.it/club/?id=53454","address":"Melfi","country":"ITALIA"},
{"id":"21264","name":"MATERA HOST","city":"Matera","lat":40.666877,"lng":16.604907,"site":"lions.it/club/?id=21264","address":"Matera","country":"ITALIA"},
{"id":"61015","name":"MATERA CITTA' DEI SASSI","city":"Matera","lat":40.667214,"lng":16.60442,"site":"lions.it/club/?id=61015","address":"Matera","country":"ITALIA"},
{"id":"58919","name":"GRAVINA IN PUGLIA","city":"Gravina In Puglia","lat":40.822468,"lng":16.418025,"site":"lions.it/club/?id=58919","address":"Gravina In Puglia","country":"ITALIA"},
{"id":"21252","name":"CATANZARO HOST","city":"Catanzaro","lat":38.911903,"lng":16.58663,"site":"lions.it/club/?id=21252","address":"Catanzaro","country":"ITALIA"},
{"id":"132325","name":"Catanzaro Temesa","city":"Catanzaro","lat":38.914535,"lng":16.583554,"site":"lions.it/club/?id=132325","address":"Catanzaro","country":"ITALIA"},
{"id":"65324","name":"CROPANI-BOTRICELLO-SELLIA MARINA M.J.","city":"Cropani Marina","lat":38.923717,"lng":16.808899,"site":"lions.it/club/?id=65324","address":"Cropani Marina","country":"ITALIA"},
{"id":"181123","name":"Maida Feudo","city":"Lamezia Terme","lat":38.955109,"lng":16.330479,"site":"lions.it/club/?id=181123","address":"Lamezia Terme","country":"ITALIA"},
{"id":"46248","name":"SOVERATO E VERSANTE IONICO DELLE SERRE","city":"Soverato","lat":38.686224,"lng":16.550742,"site":"lions.it/club/?id=46248","address":"Soverato","country":"ITALIA"},
{"id":"21284","name":"VIBO VALENTIA","city":"Vibo Valentia","lat":38.69842,"lng":16.088406,"site":"lions.it/club/?id=21284","address":"Vibo Valentia","country":"ITALIA"},
{"id":"136269","name":"Crotone Hera Lacinia","city":"Crotone","lat":39.081202,"lng":17.11936,"site":"lions.it/club/?id=136269","address":"Crotone","country":"ITALIA"},
{"id":"67410","name":"REGGIO CALABRIA-CASTELLO ARAGONESE","city":"Reggio Di Calabria","lat":38.111685,"lng":15.657169,"site":"lions.it/club/?id=67410","address":"Reggio Di Calabria","country":"ITALIA"},
{"id":"73393","name":"MESSINA IONIO","city":"Messina","lat":38.184664,"lng":15.558445,"site":"lions.it/club/?id=73393","address":"Messina","country":"ITALIA"},
{"id":"54744","name":"MESSINA PELORO","city":"Messina","lat":38.184672,"lng":15.558452,"site":"lions.it/club/?id=54744","address":"Messina","country":"ITALIA"},
{"id":"181261","name":"Messina Cristo Re","city":"Messina","lat":38.188492,"lng":15.557511,"site":"lions.it/club/?id=181261","address":"Messina","country":"ITALIA"},
{"id":"59723","name":"VILLA SAN GIOVANNI FATA MORGANA","city":"Villa San Giovanni","lat":38.229505,"lng":15.651935,"site":"lions.it/club/?id=59723","address":"Villa San Giovanni","country":"ITALIA"},
{"id":"141859","name":"Roccalumera Quasimodo","city":"Roccalumera","lat":37.969454,"lng":15.388922,"site":"lions.it/club/?id=141859","address":"Roccalumera","country":"ITALIA"},
{"id":"21271","name":"PALMI","city":"Palmi","lat":38.357581,"lng":15.855828,"site":"lions.it/club/?id=21271","address":"Palmi","country":"ITALIA"},
{"id":"132326","name":"Gioia Tauro-Piana","city":"Gioia Tauro","lat":38.427914,"lng":15.899795,"site":"lions.it/club/?id=132326","address":"Gioia Tauro","country":"ITALIA"},
{"id":"82558","name":"TAURIANOVA VALLIS SALINARUM","city":"Taurianova","lat":38.353597,"lng":16.010901,"site":"lions.it/club/?id=82558","address":"Taurianova","country":"ITALIA"},
{"id":"71347","name":"TAORMINA","city":"Taormina","lat":37.850241,"lng":15.291259,"site":"lions.it/club/?id=71347","address":"Taormina","country":"ITALIA"},
{"id":"21282","name":"TAORMINA","city":"Taormina","lat":37.849962,"lng":15.283426,"site":"lions.it/club/?id=21282","address":"Taormina","country":"ITALIA"},
{"id":"55265","name":"POLISTENA BRUTIUM","city":"Polistena","lat":38.402366,"lng":16.069942,"site":"lions.it/club/?id=55265","address":"Polistena","country":"ITALIA"},
{"id":"71325","name":"Cosenza Marlena Parisi","city":"Rende","lat":39.326496,"lng":16.242941,"site":"lions.it/club/?id=71325","address":"Rende","country":"ITALIA"},
{"id":"21254","name":"COSENZA HOST","city":"Rende","lat":39.327773,"lng":16.244147,"site":"lions.it/club/?id=21254","address":"Rende","country":"ITALIA"},
{"id":"59800","name":"COSENZA CASTELLO SVEVO","city":"Rende","lat":39.332774,"lng":16.245088,"site":"lionsclub-cosenzacastellosvevo.it","address":"Rende","country":"ITALIA"},
{"id":"57866","name":"ACRI","city":"Acri","lat":39.490118,"lng":16.382696,"site":"lions.it/club/?id=57866","address":"Acri","country":"ITALIA"},
{"id":"61547","name":"AMANTEA","city":"Amantea","lat":39.133934,"lng":16.071687,"site":"lions.it/club/?id=61547","address":"Amantea","country":"ITALIA"},
{"id":"61873","name":"GUARDIA PIEMONTESE CITTA' DEI VALDESI","city":"Guardia Piemontese","lat":39.466449,"lng":15.97726,"site":"lions.it/club/?id=61873","address":"Guardia Piemontese","country":"ITALIA"},
{"id":"141554","name":"Belvedere Marittimo - Riviera dei Cedri","city":"Belvedere Marittimo","lat":39.620707,"lng":15.852124,"site":"lions.it/club/?id=141554","address":"Belvedere Marittimo","country":"ITALIA"},
{"id":"78232","name":"PALERMO MONTE PELLEGRINO","city":"Palermo","lat":38.122746,"lng":13.353903,"site":"lions108yb.it","address":"Palermo","country":"ITALIA"},
{"id":"132910","name":"Palermo Guglielmo II","city":"Palermo","lat":38.122399,"lng":13.353303,"site":"lions108yb.it","address":"Palermo","country":"ITALIA"},
{"id":"72282","name":"BAGHERIA","city":"Bagheria","lat":38.077002,"lng":13.509603,"site":"lionsclubbagheria.it","address":"Bagheria","country":"ITALIA"},
{"id":"44866","name":"ALCAMO","city":"Alcamo","lat":37.981481,"lng":12.964198,"site":"lions108yb.it","address":"Alcamo","country":"ITALIA"},
{"id":"59972","name":"CATANIA PORTO ULISSE","city":"Catania","lat":37.507884,"lng":15.083003,"site":"lions108yb.it","address":"Catania","country":"ITALIA"},
{"id":"78489","name":"CATANIA VAL DIRILLO","city":"Catania","lat":37.505789,"lng":15.08435,"site":"lions108yb.it","address":"Catania","country":"ITALIA"},
{"id":"106711","name":"CATANIA MEDITERRANEO","city":"Catania","lat":37.5101,"lng":15.078009,"site":"lions108yb.it","address":"Catania","country":"ITALIA"},
{"id":"53508","name":"CATANIA ALCANTARA","city":"Catania","lat":37.511156,"lng":15.091504,"site":"lions108yb.it","address":"Catania","country":"ITALIA"},
{"id":"142277","name":"Catania Brancati","city":"Catania","lat":37.513936,"lng":15.074364,"site":"lions108yb.it","address":"Catania","country":"ITALIA"},
{"id":"51628","name":"CATANIA GIOENI","city":"Catania","lat":37.505278,"lng":15.095423,"site":"lions108yb.it","address":"Catania","country":"ITALIA"},
{"id":"135923","name":"Catania For An Absolute Serve","city":"Catania","lat":37.517773,"lng":15.086302,"site":"lions108yb.it","address":"Catania","country":"ITALIA"},
{"id":"136184","name":"Catania Lago di Nicito","city":"Catania","lat":37.522822,"lng":15.095332,"site":"lions108yb.it","address":"Catania","country":"ITALIA"},
{"id":"21251","name":"CATANIA HOST","city":"Catania","lat":37.519993,"lng":15.104052,"site":"lions108yb.it","address":"Catania","country":"ITALIA"},
{"id":"99466","name":"CATANIA OVEST","city":"Catania","lat":37.521123,"lng":15.112184,"site":"lions108yb.it","address":"Catania","country":"ITALIA"},
{"id":"52809","name":"ACITREZZA VERGA","city":"Acitrezza","lat":37.529617,"lng":15.112883,"site":"lions108yb.it","address":"Acitrezza","country":"ITALIA"},
{"id":"139296","name":"San Giovanni La Punta-San Gregorio Terre Gentilizie","city":"San Giovanni La Punta","lat":37.551483,"lng":15.087582,"site":"lions108yb.it","address":"San Giovanni La Punta","country":"ITALIA"},
{"id":"145989","name":"Monasterum Album - Misterbianco","city":"Misterbianco","lat":37.55155,"lng":15.050148,"site":"lions108yb.it","address":"Misterbianco","country":"ITALIA"},
{"id":"85029","name":"CATANIA FARO BISCARI","city":"Aci Castello","lat":37.542487,"lng":15.136677,"site":"lions108yb.it","address":"Aci Castello","country":"ITALIA"},
{"id":"43773","name":"MISTERBIANCO","city":"Misterbianco","lat":37.517014,"lng":15.008184,"site":"lions108yb.it","address":"Misterbianco","country":"ITALIA"},
{"id":"21235","name":"ACIREALE","city":"Acireale","lat":37.614455,"lng":15.165968,"site":"lions108yb.it","address":"Acireale","country":"ITALIA"},
{"id":"21236","name":"ADRANO-BRONTE-BIANCAVILLA","city":"Biancavilla","lat":37.64273,"lng":14.865917,"site":"lions108yb.it","address":"Biancavilla","country":"ITALIA"},
{"id":"71314","name":"AUGUSTA","city":"Augusta","lat":37.223209,"lng":15.220478,"site":"lions108yb.it","address":"Augusta","country":"ITALIA"},
{"id":"21281","name":"SIRACUSA HOST","city":"Siracusa","lat":37.066341,"lng":15.292116,"site":"lions108yb.it","address":"Siracusa","country":"ITALIA"},
{"id":"60287","name":"PALAZZOLO ACREIDE","city":"Palazzolo Acreide","lat":37.066412,"lng":14.907687,"site":"lions108yb.it","address":"Palazzolo Acreide","country":"ITALIA"},
{"id":"124129","name":"Modica II","city":"Modica","lat":36.866129,"lng":14.80716,"site":"lions108yb.it","address":"Modica","country":"ITALIA"},
{"id":"52603","name":"SCICLI PLAGA IBLEA","city":"Ragusa","lat":36.917141,"lng":14.723947,"site":"lions108yb.it","address":"Ragusa","country":"ITALIA"},
{"id":"29308","name":"VITTORIA","city":"Vittoria","lat":36.945957,"lng":14.526218,"site":"lions108yb.it","address":"Vittoria","country":"ITALIA"},
{"id":"48170","name":"NISCEMI","city":"Niscemi","lat":37.148656,"lng":14.387469,"site":"lions108yb.it","address":"Niscemi","country":"ITALIA"},
{"id":"96430","name":"DEL GOLFO DI GELA","city":"Gela","lat":37.064945,"lng":14.253707,"site":"lions108yb.it","address":"Gela","country":"ITALIA"},
{"id":"155163","name":"Butera e Terre Federiciane","city":"Gela","lat":37.073025,"lng":14.233776,"site":"lions108yb.it","address":"Gela","country":"ITALIA"},
{"id":"130948","name":"Del Golfo Di Gela","city":"San Michele Di Ganzaria","lat":37.278728,"lng":14.4296,"site":"lions108yb.it","address":"San Michele Di Ganzaria","country":"ITALIA"},
{"id":"146741","name":"Cagliari Lioness","city":"Cagliari","lat":39.2066,"lng":9.142071,"site":"lions.it/club/?id=146741","address":"Cagliari","country":"ITALIA"},
{"id":"110178","name":"CAGLIARI MONTE ORO","city":"Cagliari","lat":39.2066,"lng":9.142071,"site":"lions.it/club/?id=110178","address":"Cagliari","country":"ITALIA"},
{"id":"49512","name":"CAGLIARI KAREL","city":"Cagliari","lat":39.20679,"lng":9.142401,"site":"lions.it/club/?id=49512","address":"Cagliari","country":"ITALIA"},
{"id":"44653","name":"CAGLIARI CASTELLO","city":"Cagliari","lat":39.20679,"lng":9.142401,"site":"lions.it/club/?id=44653","address":"Cagliari","country":"ITALIA"},
{"id":"48168","name":"SELARGIUS","city":"Selargius","lat":39.25367,"lng":9.170279,"site":"lions.it/club/?id=48168","address":"Selargius","country":"ITALIA"},
{"id":"37851","name":"QUARTU SANT'ELENA","city":"Quartu Sant'Elena","lat":39.241851,"lng":9.179878,"site":"lions.it/club/?id=37851","address":"Quartu Sant'Elena","country":"ITALIA"},
{"id":"65377","name":"VILLACIDRO MEDIO - CAMPIDANO","city":"San Gavino Monreale","lat":39.551918,"lng":8.797651,"site":"lions.it/club/?id=65377","address":"San Gavino Monreale","country":"ITALIA"},
{"id":"102072","name":"SASSARI MONTE ORO","city":"Sassari","lat":40.718638,"lng":8.549976,"site":"lions.it/club/?id=102072","address":"Sassari","country":"ITALIA"},
{"id":"21220","name":"SASSARI HOST","city":"Sassari","lat":40.745104,"lng":8.558314,"site":"lions.it/club/?id=21220","address":"Sassari","country":"ITALIA"},
{"id":"21208","name":"PORTO TORRES","city":"Porto Torres","lat":40.828371,"lng":8.341701,"site":"lions.it/club/?id=21208","address":"Porto Torres","country":"ITALIA"},
{"id":"45797","name":"CASTELSARDO","city":"Castelsardo","lat":40.911448,"lng":8.703693,"site":"lions.it/club/?id=45797","address":"Castelsardo","country":"ITALIA"},
{"id":"41541","name":"ALGHERO","city":"Alghero","lat":40.560753,"lng":8.317184,"site":"lions.it/club/?id=41541","address":"Alghero","country":"ITALIA"},
{"id":"21201","name":"OZIERI","city":"Ozieri","lat":40.58545,"lng":9.001693,"site":"lions.it/club/?id=21201","address":"Ozieri","country":"ITALIA"},
{"id":"21197","name":"NUORO HOST","city":"Nuoro","lat":40.316764,"lng":9.311793,"site":"lions.it/club/?id=21197","address":"Nuoro","country":"ITALIA"},
{"id":"21193","name":"MACOMER","city":"Macomer","lat":40.26643,"lng":8.776226,"site":"lions.it/club/?id=21193","address":"Macomer","country":"ITALIA"},
{"id":"21199","name":"ORISTANO","city":"Oristano","lat":39.904483,"lng":8.585918,"site":"lions.it/club/?id=21199","address":"Oristano","country":"ITALIA"},
{"id":"141720","name":"Monreale","city":"Sardara","lat":39.613589,"lng":8.820923,"site":"lions.it/club/?id=141720","address":"Sardara","country":"ITALIA"}
]
